Account Name,nsbi_sector,New Georeferenced Column,NSBI Financial Contribution (Commitment/Announced),Place Name,nsbi_county,PostalCode,fiscal year,Longitude,Latitude
Northern Business Intelligence,ICT (includes Digital Media),POINT (-63.59236 44.70609),"10,850",Dartmouth,Halifax Regional Municipality,B3B1T4,2018 - 2019,-63.59236,44.70609
Fourth State Energy Incorporated,Energy,POINT (-63.632286 44.654755),"3,750",Halifax,Halifax Regional Municipality,B3J2L4,2018 - 2019,-63.632286,44.654755
Skinfix Inc,Advanced Manufacturing,POINT (-63.570552 44.645084),"8,100",Halifax,Halifax Regional Municipality,B3J1R9,2018 - 2019,-63.570552,44.645084
Singolar Inc,ICT (includes Digital Media),POINT (-64.6186263 44.4261574),"15,000",Bridgewater,Lunenburg,B4V6Y1,2018 - 2019,-64.6186263,44.4261574
Truro Herbal Co.,Life Sciences,POINT (-63.298648 45.371086),"15,000",Truro,Colchester,B2N1M8,2018 - 2019,-63.298648,45.371086
SimplyCast Interactive Marketing LTD.,ICT (includes Digital Media),POINT (-63.535262 44.681461),"12,500",Dartmouth,Halifax Regional Municipality,B2W6E2,2018 - 2019,-63.535262,44.681461
En Point Inc,ICT (includes Digital Media),POINT (-63.5727 44.647395),"2,520",Halifax,Halifax Regional Municipality,B3J3M8,2018 - 2019,-63.5727,44.647395
BlueLight Analytics Inc,Life Sciences,POINT (-63.620539 44.642071),"25,000",Halifax,Halifax Regional Municipality,B3L4G4,2018 - 2019,-63.620539,44.642071
Ednaturals Bar,Agri-food,POINT (-63.610642 44.617409),"2,450",Halifax,Halifax Regional Municipality,B3P1H5,2018 - 2019,-63.610642,44.617409
Victoria Co-Operative Fisheries Ltd,Fish & Seafood Processing,POINT (-60.343878 46.762745),"15,000",Neils Harbour,Victoria,B0C1N0,2018 - 2019,-60.343878,46.762745
Focal Technologies Corporation,Oceans Technology,POINT (-63.587502 44.711855),"4,775",Dartmouth,Halifax Regional Municipality,B3B1Z4,2018 - 2019,-63.587502,44.711855
Cove Kombucha,Agri-food,POINT (-63.576924 44.640981),"8,400",Halifax,Halifax Regional Municipality,B3J2J9,2018 - 2019,-63.576924,44.640981
Dormie Golf Workshop Inc.,Advanced Manufacturing,POINT (-63.590301 44.660963),"14,950",Halifax,Halifax Regional Municipality,B3K2Y3,2018 - 2019,-63.590301,44.660963
B4Checkin Limited,ICT (includes Digital Media),POINT (-63.586911 44.640361),"19,000",Halifax,Halifax Regional Municipality,B3J3S9,2018 - 2019,-63.586911,44.640361
Barrelling Tide Distillery,Agri-food,POINT (-64.362715 45.159695),"6,875",Port Williams,Kings,B0P1T0,2018 - 2019,-64.362715,45.159695
Fundmetric Incorporated,ICT (includes Digital Media),POINT (-63.57813098 44.64335495),"7,500",Halifax,Halifax Regional Municipality,B3J3K3,2018 - 2019,-63.57813098,44.64335495
Ven-Rez Products Ltd,Advanced Manufacturing,POINT (-65.41816 43.66134),"16,832",Shelburne,Shelburne,B0T1W0,2018 - 2019,-65.41816,43.66134
Riverside Lobster International Inc,Fish & Seafood Processing,POINT (-66.258852 44.158134),"15,000",Meteghan,Digby,B0W2J0,2018 - 2019,-66.258852,44.158134
Precision BioLogic Incorporated,Life Sciences,POINT (-63.573165 44.695212),"4,750",Dartmouth,Halifax Regional Municipality,B3B0A9,2018 - 2019,-63.573165,44.695212
Duckish Natural Skin Care Limited,Advanced Manufacturing,POINT (-63.595101 44.649822),"9,375",Halifax,Halifax Regional Municipality,B3L1K1,2018 - 2019,-63.595101,44.649822
GeoNavo Positioning Systems Inc,ICT (includes Digital Media),POINT (-63.800164 44.734087),"15,000",Hammonds Plains,Halifax Regional Municipality,B4B2B8,2018 - 2019,-63.800164,44.734087
Eyeread Inc.,ICT (includes Digital Media),POINT (-63.613528 44.694128),"15,000",Dartmouth,Halifax Regional Municipality,B3B1E8,2018 - 2019,-63.613528,44.694128
WarrierTech Inc,ICT (includes Digital Media),POINT (-63.5849 44.640901),"13,336",Halifax,Halifax Regional Municipality,B3H1Y1,2018 - 2019,-63.5849,44.640901
Unleash Surf Inc.,Travel & Accommodation,POINT (-63.590597 44.655797),"5,000",Halifax,Halifax Regional Municipality,B3K3S3,2018 - 2019,-63.590597,44.655797
THE WELL - CREATIVE CONSULTANTS INC.,ICT (includes Digital Media),POINT (-63.86772 44.69243),"15,000",Upper Tantallon,Halifax Regional Municipality,B3Z4R3,2018 - 2019,-63.86772,44.69243
BMC Seafoods Ltd,Fish & Seafood Processing,POINT (-66.258852 44.158134),"3,200",Meteghan,Digby,B0W2J0,2018 - 2019,-66.258852,44.158134
Atlantic Institute for Resilience Inc.,Life Sciences,POINT (-63.585161 44.640827),"13,750",Halifax,Halifax Regional Municipality,B3H1Y4,2018 - 2019,-63.585161,44.640827
Cribcut,ICT (includes Digital Media),POINT (-63.57614729 44.65208895),"7,500",Halifax,Halifax Regional Municipality,B3J3R7,2018 - 2019,-63.57614729,44.65208895
Sealand Building Group Inc,Advanced Manufacturing,POINT (-63.741086 44.724533),"22,500",Halifax,Halifax Regional Municipality,B4B1G2,2018 - 2019,-63.741086,44.724533
Keeping Roads Safe Technologies Inc,ICT (includes Digital Media),POINT (-63.710231 44.722456),"2,850",Bedford,Halifax Regional Municipality,B4B1H1,2018 - 2019,-63.710231,44.722456
Tony's Meats Ltd,Agri-food,POINT (-61.944846 45.654903),"5,980",Antigonish,Antigonish,B2G2L2,2018 - 2019,-61.944846,45.654903
Stark International Inc,Energy,POINT (-62.6438518 45.58895964),"7,500",New Glasgow,Pictou,B2H2T3,2018 - 2019,-62.6438518,45.58895964
Made with Local Snack Foods Inc.,Agri-food,POINT (-63.568797 44.669949),"15,750",Dartmouth,Halifax Regional Municipality,B2Y2V9,2018 - 2019,-63.568797,44.669949
BioMedica Diagnostics Inc,Life Sciences,POINT (-64.318054 44.819594),"13,500",Windsor,Hants,B0N2T0,2018 - 2019,-64.318054,44.819594
InterTalk Critical Information Systems Inc,ICT (includes Digital Media),POINT (-63.611144 44.704132),"14,850",Dartmouth,Halifax Regional Municipality,B3B1J4,2018 - 2019,-63.611144,44.704132
Bend Beauty Inc.,Life Sciences,POINT (-63.577291 44.639639),"10,000",Halifax,Halifax Regional Municipality,B3J1C7,2018 - 2019,-63.577291,44.639639
Hanatech IOT Inc.,ICT (includes Digital Media),POINT (-63.655971 44.733116),"15,000",Bedford,Halifax Regional Municipality,B4A1E8,2018 - 2019,-63.655971,44.733116
Chocolate Hackers,Agri-food,POINT (-63.604915 44.665088),375,Halifax,Halifax Regional Municipality,B3K2H7,2018 - 2019,-63.604915,44.665088
Terra Beata,Agri-food,POINT (-64.309889 44.37635),"5,500",Bridgewater,Lunenburg,B0J2C0,2018 - 2019,-64.309889,44.37635
DBR Resources LTD.,Business Services,POINT (-63.598026 44.785742),"7,469",Waverley,Halifax Regional Municipality,B2R1T3,2018 - 2019,-63.598026,44.785742
Grey Lit Matters Inc,ICT (includes Digital Media),POINT (-63.608219 44.630968),"7,560",Halifax,Halifax Regional Municipality,B3P1A8,2018 - 2019,-63.608219,44.630968
DynaGen Technologies Incorporated,Advanced Manufacturing,POINT (-63.579683 44.70058),"14,775",Dartmouth,Halifax Regional Municipality,B3B1W8,2018 - 2019,-63.579683,44.70058
Classic Fine Foods,Agri-food,POINT (-60.22160264 46.15678026),"4,597",Edwardsville,Cape Breton,B2A4S6,2018 - 2019,-60.22160264,46.15678026
Spark Engagement Inc,Business Services,POINT (-61.944846 45.654903),"15,000",Antigonish,Antigonish,B2G2L2,2018 - 2019,-61.944846,45.654903
Marcato Digital Solutions Inc,ICT (includes Digital Media),POINT (-60.224927 46.083533),"9,975",Sydney,Cape Breton,B1P6J1,2018 - 2019,-60.224927,46.083533
EfficiencyOne Services Inc,Business Services,POINT (-63.605171 44.69816),"2,875",Dartmouth,Halifax Regional Municipality,B3B1G5,2018 - 2019,-63.605171,44.69816
3231974 NOVA SCOTIA LIMITED o/a Do Lobster,Fish & Seafood Processing,POINT (-63.494322 44.612474),"7,250",Eastern Passage,Halifax Regional Municipality,B3G1M4,2018 - 2019,-63.494322,44.612474
Bereda Training Inc.,ICT (includes Digital Media),POINT (-63.572554 44.644489),"15,000",Halifax,Halifax Regional Municipality,B3J3K5,2018 - 2019,-63.572554,44.644489
Iris Booth Incorporated,Business Services,POINT (-63.581653 44.651755),"8,000",Halifax,Halifax Regional Municipality,B3K2Z8,2018 - 2019,-63.581653,44.651755
Densitas Inc,ICT (includes Digital Media),POINT (-63.59645 44.637136),"15,000",Halifax,Halifax Regional Municipality,B3H3Z1,2018 - 2019,-63.59645,44.637136
Atlantic Sea Cucumber Ltd,Fish & Seafood Processing,POINT (-63.757708 44.662435),"15,000",Hacketts Cove,Halifax Regional Municipality,B3Z3K7,2018 - 2019,-63.757708,44.662435
Rx Security Inc.,Advanced Manufacturing,POINT (-63.646705 44.737949),"15,000",Bedford,Halifax Regional Municipality,B4A2T3,2018 - 2019,-63.646705,44.737949
Tangled Garden,Agri-food,POINT (-64.285653 45.095031),"5,700",Grand Pre,Kings,B0P1M0,2018 - 2019,-64.285653,45.095031
Advanced Glazings Ltd,Advanced Manufacturing,POINT (-60.19332 46.143671),"15,000",Sydney,Cape Breton,B1P6R7,2018 - 2019,-60.19332,46.143671
Benjamin Bridge Vineyards,Agri-food,POINT (-64.403589 45.013938),"6,000",Wolfville,Kings,B4P2R1,2018 - 2019,-64.403589,45.013938
Rotofast Inc,Advanced Manufacturing,POINT (-60.183097 46.129316),"9,075",Cape Breton,Cape Breton,B1P4L8,2018 - 2019,-60.183097,46.129316
Novate Systems Inc.,Engineering & Professional,POINT (-63.61637086 44.70527104),"7,000",Dartmouth,Halifax Regional Municipality,B3B1P7,2018 - 2019,-63.61637086,44.70527104
Safety Made Easy Basic Training,Business Services,POINT (-62.655446 45.58971),"4,250",New Glasgow,Pictou,B2H2B9,2018 - 2019,-62.655446,45.58971
Allendale Electronics Ltd,Advanced Manufacturing,POINT (-65.12347 43.71839),"12,306",Lockeport,Shelburne,B0T1L0,2018 - 2019,-65.12347,43.71839
MindSea Development Incorporated,ICT (includes Digital Media),POINT (-63.5727 44.647395),"25,000",Halifax,Halifax Regional Municipality,B3J3M8,2018 - 2019,-63.5727,44.647395
Just Us! Coffee Roasters Co-op Ltd,Agri-food,POINT (-64.348807 45.068884),"2,500",Wolfville,Kings,B4P2R3,2018 - 2019,-64.348807,45.068884
Site 2020 Inc.,ICT (includes Digital Media),POINT (-63.595664 44.704755),"25,000",Dartmouth,Halifax Regional Municipality,B3B1L3,2018 - 2019,-63.595664,44.704755
Athletigen Technologies Inc,Life Sciences,POINT (-63.57539255 44.64341829),"25,000",Halifax,Halifax Regional Municipality,B3J1G1,2018 - 2019,-63.57539255,44.64341829
Spring Loaded Technology Incorporated,Life Sciences,POINT (-63.596475 44.653518),"25,000",Halifax,Halifax Regional Municipality,B3K1P5,2018 - 2019,-63.596475,44.653518
Boondoc Technologies Inc (The Rounds),ICT (includes Digital Media),POINT (-63.611268 44.662185),"8,063",Halifax,Halifax Regional Municipality,B3K4X5,2018 - 2019,-63.611268,44.662185
Dragon Veterinary Canada Limited,ICT (includes Digital Media),POINT (-63.674559 44.711731),"15,000",Bedford,Halifax Regional Municipality,B4A1H4,2018 - 2019,-63.674559,44.711731
The 7 Virtues Beauty Inc,Advanced Manufacturing,POINT (-63.574296 44.624597),"15,000",Halifax,Halifax Regional Municipality,B3H1B1,2018 - 2019,-63.574296,44.624597
902HipHop Inc.,ICT (includes Digital Media),POINT (-63.594931 44.654736),"15,000",Halifax,Halifax Regional Municipality,B3K4N7,2018 - 2019,-63.594931,44.654736
Sales Beacon,ICT (includes Digital Media),POINT (-64.710851 44.055473),"6,000",Brooklyn,Lunenburg,B0J1H0,2018 - 2019,-64.710851,44.055473
MetOcean Telematics Limited,Oceans Technology,POINT (-63.595049 44.699403),"24,750",Dartmouth,Halifax Regional Municipality,B3B1R9,2018 - 2019,-63.595049,44.699403
Peace by Chocolate Inc.,Agri-food,POINT (-61.97936724 45.62856001),"15,000",Antigonish,Antigonish,B2G2G8,2018 - 2019,-61.97936724,45.62856001
Blue Harbour Cheese Incorporated,Agri-food,POINT (-63.611255 44.665687),"3,750",Halifax,Halifax Regional Municipality,B3K4S7,2018 - 2019,-63.611255,44.665687
Novonix Battery Testing Services Inc,Energy,POINT (-63.710231 44.722456),"15,000",Bedford,Halifax Regional Municipality,B4B1H1,2018 - 2019,-63.710231,44.722456
InnovaSea Marine Systems Canada Inc DBA Vemco,ICT (includes Digital Media),POINT (-63.754376 44.700635),"15,000",Hammonds Plains,Halifax Regional Municipality,B4B1L9,2018 - 2019,-63.754376,44.700635
Current Studios Inc,ICT (includes Digital Media),POINT (-63.576767 44.64669),"8,713",Halifax,Halifax Regional Municipality,B3J3X8,2018 - 2019,-63.576767,44.64669
Live Stor Sydney Limited,Business Services,POINT (-60.23984215 46.12185596),"1,730",Sydney,Cape Breton,B1L1B8,2018 - 2019,-60.23984215,46.12185596
R&G Strategic Inc,Business Services,POINT (-63.59056367 44.64722055),"3,375",Halifax,Halifax Regional Municipality,B3K5J7,2018 - 2019,-63.59056367,44.64722055
Scope Digital Media,Film Production,POINT (-62.101446 45.551584),"1,718",Antigonish,Antigonish,B2G2K8,2018 - 2019,-62.101446,45.551584
Skye Larke Productions Limited,Film Production,POINT (-63.041939 45.747988),"5,175",River John,Pictou,B0K1N0,2018 - 2019,-63.041939,45.747988
Talem Health Analytics Inc,Life Sciences,POINT (-60.218301 46.14076562),"4,150",Sydney,Cape Breton,B1R1L8,2018 - 2019,-60.218301,46.14076562
Digital Cinema Labs Inc.,Film Production,POINT (-63.573651 44.632871),"1,600",Halifax,Halifax Regional Municipality,B3H2V1,2018 - 2019,-63.573651,44.632871
Roswall Development Incorporated,Energy,POINT (-63.66099 44.683287),"9,200",Halifax,Halifax Regional Municipality,B3M2L3,2018 - 2019,-63.66099,44.683287
EcoPilot Canada Inc.,Engineering & Professional,POINT (-63.575048 44.649083),"5,520",Halifax,Halifax Regional Municipality,B3J3L7,2018 - 2019,-63.575048,44.649083
"Accomplice Content Supply Co., Inc.",Film Production,POINT (-63.593146 44.655027),"5,418",Halifax,Halifax Regional Municipality,B3K4C6,2018 - 2019,-63.593146,44.655027
Beyond Food Inc.,Agri-food,POINT (-63.580528 44.698469),"4,717",Dartmouth,Halifax Regional Municipality,B3B1W2,2018 - 2019,-63.580528,44.698469
Chain-Yard Cider Inc,Agri-food,POINT (-63.593851 44.655519),"2,209",Halifax,Halifax Regional Municipality,B3K4C8,2018 - 2019,-63.593851,44.655519
Content Bloom Inc,ICT (includes Digital Media),POINT (-63.669301 44.724611),"2,105",Bedford,Halifax Regional Municipality,B4A1C6,2018 - 2019,-63.669301,44.724611
East Coast School of Languages (ECSL),Business Services,POINT (-63.571891 44.646015),"7,206",Halifax,Halifax Regional Municipality,B3J1V6,2018 - 2019,-63.571891,44.646015
Eli Technology,ICT (includes Digital Media),POINT (-63.573015 44.636975),"15,000",Halifax,Halifax Regional Municipality,B3H2R9,2018 - 2019,-63.573015,44.636975
Jaza Energy Inc.,Energy,POINT (-63.606168 44.655819),"15,650",Halifax,Halifax Regional Municipality,B3L1Y9,2018 - 2019,-63.606168,44.655819
Kula Partners Inc.,Business Services,POINT (-63.576767 44.64669),"1,665",Halifax,Halifax Regional Municipality,B3J3X8,2018 - 2019,-63.576767,44.64669
Lisa Young Lee Inc.,Creative Industries,POINT (-60.251151 46.208616),"3,350",North Sydney,Cape Breton,B2A2S1,2018 - 2019,-60.251151,46.208616
McFadgen's Bakery Limited,Agri-food,POINT (-59.95500857 46.20367769),507,Glace Bay,Cape Breton,B1A3V6,2018 - 2019,-59.95500857,46.20367769
Mercator Geological Services Limited,Mining & Mineral Products,POINT (-63.566451 44.666973),"2,187",Dartmouth,Halifax Regional Municipality,B2Y1G4,2018 - 2019,-63.566451,44.666973
Mobia Technology Innovations,ICT (includes Digital Media),POINT (-63.591479 44.7091),"25,000",Dartmouth,Halifax Regional Municipality,B3B0B3,2018 - 2019,-63.591479,44.7091
Pictou Twist Pictures Inc,Film Production,POINT (-63.573178 44.645217),"5,575",Halifax,Halifax Regional Municipality,B3J1J7,2018 - 2019,-63.573178,44.645217
PitchPerfect Software Inc. operating as Proposify,ICT (includes Digital Media),POINT (-63.573726 44.646512),"25,000",Halifax,Halifax Regional Municipality,B3J2A2,2018 - 2019,-63.573726,44.646512
RIMOT.IO Inc,ICT (includes Digital Media),POINT (-63.542698 44.660305),"2,533",Dartmouth,Halifax Regional Municipality,B2Y4M9,2018 - 2019,-63.542698,44.660305
Sand To Sky Productions,Film Production,POINT (-63.757708 44.662427),"3,287",Blind Bay,Halifax Regional Municipality,B3Z1M2,2018 - 2019,-63.757708,44.662427
Seafoam Lavender Company,Agri-food,POINT (-63.041939 45.747988),"1,240",River John,Pictou,B0K1N0,2018 - 2019,-63.041939,45.747988
Shift,Business Services,POINT (-63.919943 44.680846),"1,300",Head Of St Margarets Bay,Halifax Regional Municipality,B3Z1X8,2018 - 2019,-63.919943,44.680846
Steinhart Distillery Limited,Agri-food,POINT (-62.155396 45.566847),"5,550",Antigonish,Antigonish,B2G2L1,2018 - 2019,-62.155396,45.566847
Synclavier Digital Corporation Ltd.,ICT (includes Digital Media),POINT (-61.010749 45.53269),"2,382",D'Escousse,Cape Breton,B0E1K0,2018 - 2019,-61.010749,45.53269
Ultra Electronics Maritime Systems,Advanced Manufacturing,POINT (-63.545652 44.649583),"1,662",Dartmouth,Halifax Regional Municipality,B2Y4N2,2018 - 2019,-63.545652,44.649583
Waterstar Entertainment Inc.,Film Production,POINT (-63.573653 44.632873),"3,412",Halifax,Halifax Regional Municipality,B3H2V2,2018 - 2019,-63.573653,44.632873
Waycobah Contracting Incorporated,Fish & Seafood Processing,POINT (-60.965235 46.081461),"1,730",Whycocomagh,Inverness,B0E3M0,2018 - 2019,-60.965235,46.081461
Afishionado Fish Mongers Inc,Fish & Seafood Processing,POINT (-63.653467 44.723596),"6,132",Bedford,Halifax Regional Municipality,B4A4J8,2018 - 2019,-63.653467,44.723596
Bluedrop Training & Simulation Inc.,Aerospace & Defence,POINT (-63.669584 44.656068),"2,192",Halifax,Halifax Regional Municipality,B3S1N2,2018 - 2019,-63.669584,44.656068
Compass Distillers,Agri-food,POINT (-63.592367 44.654497),"1,027",Halifax,Halifax Regional Municipality,B3K4C4,2018 - 2019,-63.592367,44.654497
Muwin Estate Wines Ltd,Agri-food,POINT (-63.916747 44.706544),"4,850",New Ross,Lunenburg,B0J2M0,2018 - 2019,-63.916747,44.706544
The Soap Company of Nova Scotia Ltd,Advanced Manufacturing,POINT (-62.026841 45.193706),"1,800",Sherbrooke,Guysborough,B0J3C0,2018 - 2019,-62.026841,45.193706
Topsail Productions Ltd.,Film Production,POINT (-63.573178 44.645217),"2,500",Halifax,Halifax Regional Municipality,B3J1J7,2018 - 2019,-63.573178,44.645217
2 Crows Brewing Ltd,Agri-food,POINT (-63.578146 44.649349),"2,775",Halifax,Halifax Regional Municipality,B3J2G7,2018 - 2019,-63.578146,44.649349
Baie Run Pet Products Inc,Agri-food,POINT (-63.57606155 44.65201157),"5,212",Halifax,Halifax Regional Municipality,B3J3N2,2018 - 2019,-63.57606155,44.65201157
Cartoon Conrad Productions Inc,ICT (includes Digital Media),POINT (-63.691467 44.853799),"8,411",Beaver Bank,Halifax Regional Municipality,B4G1C5,2018 - 2019,-63.691467,44.853799
Fit First Holdings Inc.,Business Services,POINT (-63.595848 44.710189),"5,050",Dartmouth,Halifax Regional Municipality,B3B1X2,2018 - 2019,-63.595848,44.710189
Imaginal Ventures Inc.,Engineering & Professional,POINT (-63.590281 44.662753),794,Halifax,Halifax Regional Municipality,B3K5T9,2018 - 2019,-63.590281,44.662753
JusNova Agriculture Ltd,Agri-food,POINT (-63.641789 44.66397),"3,550",Halifax,Halifax Regional Municipality,B3M1N1,2018 - 2019,-63.641789,44.66397
Stratigro Business Consulting,Business Services,POINT (-66.258852 44.158134),"2,775",Meteghan,Digby,B0W2J0,2018 - 2019,-66.258852,44.158134
4Deep Inwater Imaging,Oceans Technology,POINT (-63.741086 44.724533),"1,800",Halifax,Halifax Regional Municipality,B4B1G2,2018 - 2019,-63.741086,44.724533
Blois Fish Processing Automation Limited,Fish & Seafood Processing,POINT (-63.476576 44.653288),850,Dartmouth,Halifax Regional Municipality,B2V2S7,2018 - 2019,-63.476576,44.653288
Maritime Gourmet Mushrooms Inc,Agri-food,POINT (-63.667551 44.676453),"2,202",Halifax,Halifax Regional Municipality,B3M3Y8,2018 - 2019,-63.667551,44.676453
Atlantic Flight Attendant Academy,Business Services,POINT (-63.593557 44.632239),"3,000",Halifax,Halifax Regional Municipality,B3H3Y4,2018 - 2019,-63.593557,44.632239
Breton Brewing Co,Agri-food,POINT (-60.229829 46.116106),"3,000",Sydney,Cape Breton,B1R1V7,2018 - 2019,-60.229829,46.116106
Lunenburg County Shipwrights Inc.,Advanced Manufacturing,POINT (-64.309889 44.37635),"2,278",Bridgewater,Lunenburg,B0J2C0,2018 - 2019,-64.309889,44.37635
Raised Performance Media Inc.,Business Services,POINT (-63.574131 44.647278),"3,662",Halifax,Halifax Regional Municipality,B3J2A4,2018 - 2019,-63.574131,44.647278
SalesRight Technologies Inc,ICT (includes Digital Media),POINT (-63.572554 44.644489),750,Halifax,Halifax Regional Municipality,B3J3K5,2018 - 2019,-63.572554,44.644489
Sayle Group Inc,Business Services,POINT (-63.777975 44.757498),"4,925",Hammonds Plains,Halifax Regional Municipality,B4B1W8,2018 - 2019,-63.777975,44.757498
Youx Systems Inc.,ICT (includes Digital Media),POINT (-63.67319911 44.66025623),512,Halifax,Halifax Regional Municipality,B3S1N5,2018 - 2019,-63.67319911,44.66025623
6 Joe's Software Inc.,ICT (includes Digital Media),POINT (-63.572554 44.644489),"11,000",Halifax,Halifax Regional Municipality,B3J3K5,2018 - 2019,-63.572554,44.644489
Downeast Entertainment & Meeting Specialists Limited,Business Services,POINT (-63.57472 44.648408),"7,359",Halifax,Halifax Regional Municipality,B3J3K8,2018 - 2019,-63.57472,44.648408
Hand Maiden Fine Yarn Inc.,Clothing & Textiles,POINT (-63.598985 44.659252),"3,551",Halifax,Halifax Regional Municipality,B3K4E8,2018 - 2019,-63.598985,44.659252
Maritime bioLoggers Inc.,Oceans Technology,POINT (-63.56358 44.667535),"2,318",Dartmouth,Halifax Regional Municipality,B2Y2W1,2018 - 2019,-63.56358,44.667535
Momentum IT Group,ICT (includes Digital Media),POINT (-63.570421 44.64012),"4,572",Halifax,Halifax Regional Municipality,B3J1Y2,2018 - 2019,-63.570421,44.64012
New Colliers Ltd,Energy,POINT (-63.58709433 44.77831405),545,Waverley,Halifax Regional Municipality,B2R1H2,2018 - 2019,-63.58709433,44.77831405
Pelagis Data Solutions,Oceans Technology,POINT (-60.276693 46.162688),"1,050",Point Edward,Cape Breton,B2A4R2,2018 - 2019,-60.276693,46.162688
Ziah Frost Media Inc.,Film Production,POINT (-63.650476 44.652447),"4,315",Halifax,Halifax Regional Municipality,B3M1B9,2018 - 2019,-63.650476,44.652447
Breakers Fish Co Ltd,Fish & Seafood Processing,POINT (-63.627898 44.653612),"3,500",Halifax,Halifax Regional Municipality,B3L2C2,2018 - 2019,-63.627898,44.653612
FoodByte Inc,ICT (includes Digital Media),POINT (-64.36820119 45.0890494),850,Wolfville,Kings,B4P2R6,2018 - 2019,-64.36820119,45.0890494
Foundation Marketing Services Inc.,Business Services,POINT (-63.635894 44.661222),"5,605",Halifax,Halifax Regional Municipality,B3M4C5,2018 - 2019,-63.635894,44.661222
Graphite Innovation and Technologies Inc.,Advanced Manufacturing,POINT (-63.542698 44.660305),"2,900",Dartmouth,Halifax Regional Municipality,B2Y4M9,2018 - 2019,-63.542698,44.660305
Mimir Networks Corporation,ICT (includes Digital Media),POINT (-60.19056497 46.1362829),"9,475",Sydney,Cape Breton,B1P1V2,2018 - 2019,-60.19056497,46.1362829
Portara Pictures Incorporated,Film Production,POINT (-63.788549 44.713309),"4,983",Duncan Cove,Halifax Regional Municipality,B3V1K4,2018 - 2019,-63.788549,44.713309
Securicy Data Solutions Ltd,ICT (includes Digital Media),POINT (-60.19501343 46.13911828),"3,114",Sydney,Cape Breton,B1P1C6,2018 - 2019,-60.19501343,46.13911828
Sedna Tech,Oceans Technology,POINT (-63.56358 44.667535),"2,750",Dartmouth,Halifax Regional Municipality,B2Y2W1,2018 - 2019,-63.56358,44.667535
Strongest Families Institute,Business Services,POINT (-63.65843038 44.7606098),"3,423",Lower Sackville,Halifax Regional Municipality,B4C4E6,2018 - 2019,-63.65843038,44.7606098
Success Through Trust Inc,Business Services,POINT (-63.626126 44.648102),"3,125",Halifax,Halifax Regional Municipality,B3L2H3,2018 - 2019,-63.626126,44.648102
Deprolabs Technology Inc.,ICT (includes Digital Media),POINT (-63.673695 44.672237),"2,800",Halifax,Halifax Regional Municipality,B3S1G5,2018 - 2019,-63.673695,44.672237
Dominion Diving Limited,Oceans Technology,POINT (-63.56358 44.667535),"8,650",Dartmouth,Halifax Regional Municipality,B2Y2W1,2018 - 2019,-63.56358,44.667535
Festina Lente Productions Inc.,Film Production,POINT (-64.225079 44.560562),900,Chester,Lunenburg,B0J1J0,2018 - 2019,-64.225079,44.560562
Focal Research Consultants Limited,Business Services,POINT (-63.627898 44.653612),"8,629",Halifax,Halifax Regional Municipality,B3L2C2,2018 - 2019,-63.627898,44.653612
Harbr Inc.,ICT (includes Digital Media),POINT (-63.572554 44.644489),"15,000",Halifax,Halifax Regional Municipality,B3J3K5,2018 - 2019,-63.572554,44.644489
Leeway Yachts Ltd.,Oceans Technology,POINT (-63.556475 44.661861),"2,367",Dartmouth,Halifax Regional Municipality,B2Y4T5,2018 - 2019,-63.556475,44.661861
NS Sports Media Pros Ltd,ICT (includes Digital Media),POINT (-63.6851302 44.658753),"7,125",Halifax,Halifax Regional Municipality,B3S0B9,2018 - 2019,-63.6851302,44.658753
Prosaris Consulting Ltd.,Business Services,POINT (-63.756573 44.731435),"10,452",Hammonds Plains,Halifax Regional Municipality,B4B1P4,2018 - 2019,-63.756573,44.731435
QRA Corp,ICT (includes Digital Media),POINT (-63.602819 44.659309),"4,425",Halifax,Halifax Regional Municipality,B3K5L2,2018 - 2019,-63.602819,44.659309
Peer Ledger Inc,ICT (includes Digital Media),POINT (-63.572337 44.63221),"12,118",Halifax,Halifax Regional Municipality,B3H4P3,2018 - 2019,-63.572337,44.63221
Acoubit Communications,Oceans Technology,POINT (-63.56358 44.667535),"1,390",Dartmouth,Halifax Regional Municipality,B2Y2W1,2018 - 2019,-63.56358,44.667535
Meghan Martin Incorporated,Business Services,POINT (-63.563871 44.674896),"10,800",Dartmouth,Halifax Regional Municipality,B3A2L3,2018 - 2019,-63.563871,44.674896
MRE Industries Limited,Energy,POINT (-63.601539 44.716471),520,Dartmouth,Halifax Regional Municipality,B3B1N7,2018 - 2019,-63.601539,44.716471
Nova Graphene,Oceans Technology,POINT (-63.556475 44.661861),"6,038",Dartmouth,Halifax Regional Municipality,B2Y4T5,2018 - 2019,-63.556475,44.661861
PeopleCan Training & Development,Business Services,POINT (-63.68483351 44.76785324),829,Lower Sackville,Halifax Regional Municipality,B4C2S3,2018 - 2019,-63.68483351,44.76785324
World Link Food Distributors Inc,Fish & Seafood Processing,POINT (-63.52380855 44.8796973),"14,125",Enfield,Halifax Regional Municipality,B2T1K3,2018 - 2019,-63.52380855,44.8796973
CacheFlo Inc.,Business Services,POINT (-63.57894264 44.65095794),"6,687",Halifax,Halifax Regional Municipality,B3J3J8,2018 - 2019,-63.57894264,44.65095794
Guild Software Inc,Business Services,POINT (-63.657959 44.731599),"3,290",Bedford,Halifax Regional Municipality,B4A1E6,2018 - 2019,-63.657959,44.731599
Nodalblock Canada Holdings Inc.,ICT (includes Digital Media),POINT (-63.57606155 44.65201157),"7,100",Halifax,Halifax Regional Municipality,B3J3N2,2018 - 2019,-63.57606155,44.65201157
Panag Pharma Inc.,Life Sciences,POINT (-63.57614729 44.65208895),"1,621",Halifax,Halifax Regional Municipality,B3J3R7,2018 - 2019,-63.57614729,44.65208895
Ubique Networks Inc,ICT (includes Digital Media),POINT (-60.19367434 46.14157268),"12,975",Sydney,Cape Breton,B1P1J7,2018 - 2019,-60.19367434,46.14157268
Clerisy Management Group Limited,Film Production,POINT (-63.579685 44.69696),"7,352",Dartmouth,Halifax Regional Municipality,B3B1W9,2018 - 2019,-63.579685,44.69696
Dadavan Systems Inc,ICT (includes Digital Media),POINT (-63.60008607 44.78239155),710,Waverley,Halifax Regional Municipality,B2R1R7,2018 - 2019,-63.60008607,44.78239155
East Coast Varsity,Business Services,POINT (-63.532147 44.670365),"7,185",Dartmouth,Halifax Regional Municipality,B2W6L4,2018 - 2019,-63.532147,44.670365
Hivetronics Limited,Agri-food,POINT (-63.503976 44.686741),450,Dartmouth,Halifax Regional Municipality,B2W4Z3,2018 - 2019,-63.503976,44.686741
More In Store Marketing Solutions Inc,Business Services,POINT (-63.599837 44.805489),605,Fall River,Halifax Regional Municipality,B2T1J6,2018 - 2019,-63.599837,44.805489
NewAE Technology Inc.,Aerospace & Defence,POINT (-63.572766 44.637045),"7,465",Halifax,Halifax Regional Municipality,B3H2R8,2018 - 2019,-63.572766,44.637045
SolutionInc Ltd,ICT (includes Digital Media),POINT (-63.595928 44.658385),"5,255",Halifax,Halifax Regional Municipality,B3K1T2,2018 - 2019,-63.595928,44.658385
Chase's Lobster Pound Ltd,Agri-food,POINT (-63.849946 45.810472),"14,000",Port Howe,Cumberland,B0K1K0,2018 - 2019,-63.849946,45.810472
Survival Systems Ltd,Oceans Technology,POINT (-63.539046 44.6562),"5,319",Dartmouth,Halifax Regional Municipality,B2Y4W6,2018 - 2019,-63.539046,44.6562
Two East Productions Inc.,Film Production,POINT (-64.225079 44.560562),647,Chester,Halifax Regional Municipality,B0J1J0,2018 - 2019,-64.225079,44.560562
Deep Vision Inc,ICT (includes Digital Media),POINT (-63.569266 44.665864),"2,967",Dartmouth,Halifax Regional Municipality,B2Y4P5,2018 - 2019,-63.569266,44.665864
DGI Clinical Inc.,Life Sciences,POINT (-63.576047 44.646813),"2,092",Halifax,Halifax Regional Municipality,B3J2E3,2018 - 2019,-63.576047,44.646813
Du Nord Skin Care,Advanced Manufacturing,POINT (-63.543553 44.486785),"7,981",Ketch Harbour,Halifax Regional Municipality,B3V1K6,2018 - 2019,-63.543553,44.486785
Halifax Language Institute of Canada,Business Services,POINT (-63.577974 44.642749),"14,976",Halifax,Halifax Regional Municipality,B3J3M7,2018 - 2019,-63.577974,44.642749
Proven Marketing for Lawyers Inc.,Business Services,POINT (-63.578788 44.637258),500,Halifax,Halifax Regional Municipality,B3H4K6,2018 - 2019,-63.578788,44.637258
Sassy Solutions Consulting Limited,Business Services,POINT (-63.652605 44.657547),970,Halifax,Halifax Regional Municipality,B3M3C8,2018 - 2019,-63.652605,44.657547
Trip Ninja,ICT (includes Digital Media),POINT (-63.645986 44.648416),"6,039",Halifax,Halifax Regional Municipality,B3J2V1,2018 - 2019,-63.645986,44.648416
Tri-Star Industries Limited,Advanced Manufacturing,POINT (-66.118319 43.842674),"6,600",Yarmouth,Yarmouth,B5A4B4,2018 - 2019,-66.118319,43.842674
Uprise Consulting,Business Services,POINT (-63.631058 44.653673),"4,118",Halifax,Halifax Regional Municipality,B3L4T7,2018 - 2019,-63.631058,44.653673
USP-LAB N.A. Ltd.,ICT (includes Digital Media),POINT (-63.572554 44.644489),"2,475",Halifax,Halifax Regional Municipality,B3J3K5,2018 - 2019,-63.572554,44.644489
AC Live Lobster Inc,Fish & Seafood Processing,POINT (-65.650454 43.462969),"15,000",Clarks Harbour,Shelburne,B0W1P0,2018 - 2019,-65.650454,43.462969
Beta Glucan Company of Canada Inc.,Life Sciences,POINT (-63.578083 44.629216),"2,300",Halifax,Halifax Regional Municipality,B3H4N3,2018 - 2019,-63.578083,44.629216
CarbonCure Technologies Inc,Energy,POINT (-63.597081 44.704092),"13,500",Dartmouth,Halifax Regional Municipality,B3B1R6,2018 - 2019,-63.597081,44.704092
Giffin Technologies Inc.,Agri-food,POINT (-63.628608 44.645863),901,Halifax,Halifax Regional Municipality,B3N1X9,2018 - 2019,-63.628608,44.645863
Huminah Huminah Animation,ICT (includes Digital Media),POINT (-63.562672 44.669345),"15,000",Dartmouth,Halifax Regional Municipality,B2Y3P2,2018 - 2019,-63.562672,44.669345
Oyster Promo Inc,Business Services,POINT (-63.587154 44.630259),"2,000",Halifax,Halifax Regional Municipality,B3H3X9,2018 - 2019,-63.587154,44.630259
Picture Plant Ltd.,Film Production,POINT (-64.309889 44.37635),"7,787",Bridgewater,Lunenburg,B0J2C0,2018 - 2019,-64.309889,44.37635
The Instratify Group Inc.,Business Services,POINT (-63.577842 44.642783),"3,250",Halifax,Halifax Regional Municipality,B3J4A2,2018 - 2019,-63.577842,44.642783
Access Labels,Advanced Manufacturing,POINT (-63.89274 45.777062),"1,879",Amherst,Cumberland,B4H4E2,2018 - 2019,-63.89274,45.777062
Iron Apple,Transportation & Logistics,POINT (-63.588236 44.692403),"12,100",Dartmouth,Halifax Regional Municipality,B3B1V2,2018 - 2019,-63.588236,44.692403
SailTimer Inc.,ICT (includes Digital Media),POINT (-63.911447 44.644713),"10,343",Tantallon,Halifax Regional Municipality,B3Z2R9,2018 - 2019,-63.911447,44.644713
Skyline (Refer to Orgrimmar Tech. Inc.),ICT (includes Digital Media),POINT (-63.564563 44.6699),"4,847",Dartmouth,Halifax Regional Municipality,B2Y1E1,2018 - 2019,-63.564563,44.6699
Survival Systems Training Limited,Oceans Technology,POINT (-63.542555 44.655836),"13,425",Dartmouth,Halifax Regional Municipality,B2Y4K9,2018 - 2019,-63.542555,44.655836
Dugo Systems Inc,ICT (includes Digital Media),POINT (-63.572554 44.644489),"7,600",Halifax,Halifax Regional Municipality,B3J3K5,2018 - 2019,-63.572554,44.644489
Journeyman Film Company  Ltd.,ICT (includes Digital Media),POINT (-63.566107 44.666248),"10,375",Dartmouth,Halifax Regional Municipality,B2Y2S6,2018 - 2019,-63.566107,44.666248
TapRoot Fibre Lab Inc,Agri-food,POINT (-64.362715 45.159695),"2,050",Port Williams,Kings,B0P1T0,2018 - 2019,-64.362715,45.159695
Eel Lake Oyster Farm,Fish & Seafood Processing,POINT (-65.951742 43.81874),"2,400",Ste-Anne-Du-Ruisseau,Yarmouth,B0W2X0,2018 - 2019,-65.951742,43.81874
MacGregors Industrial Group,Advanced Manufacturing,POINT (-62.643478 45.586891),"2,309",New Glasgow,Pictou,B2H5C7,2018 - 2019,-62.643478,45.586891
Pivotal Coaching,Business Services,POINT (-63.588554 44.653612),"4,845",Halifax,Halifax Regional Municipality,B3K1G7,2018 - 2019,-63.588554,44.653612
Arcadia Entertainment Inc.,Film Production,POINT (-63.601752 44.644087),"7,698",Halifax,Halifax Regional Municipality,B3L1A9,2018 - 2019,-63.601752,44.644087
Burnt Out Solutions Inc,Advanced Manufacturing,POINT (-64.453388 45.068558),"17,100",New Minas,Kings,B4N3N2,2018 - 2019,-64.453388,45.068558
EcoAdvisors Inc,Business Services,POINT (-63.590845 44.6435245),"17,475",Halifax,Halifax Regional Municipality,B3H3K6,2018 - 2019,-63.590845,44.6435245
Stantec,Engineering & Professional,POINT (-63.561484 44.689132),"12,784",Dartmouth,Halifax Regional Municipality,B3A0A4,2018 - 2019,-63.561484,44.689132
Dillon Consulting Ltd,Business Services,POINT (-63.663711 44.637971),"4,335",Halifax,Halifax Regional Municipality,B3S1B3,2018 - 2019,-63.663711,44.637971
McGlone Sales and Consulting,Fish & Seafood Processing,POINT (-64.318054 44.819594),"2,275",Windsor,Hants,B0N2T0,2018 - 2019,-64.318054,44.819594
Stright-MacKay Ltd,Business Services,POINT (-62.638714 45.604452),"2,265",New Glasgow,Pictou,B2H5E1,2018 - 2019,-62.638714,45.604452
AGL Group Holding Limited,Advanced Manufacturing,POINT (-64.309889 44.37635),"1,609",Bridgewater,Lunenburg,B0J2C0,2018 - 2019,-64.309889,44.37635
Arrivals + Departures Communications Limited,Business Services,POINT (-63.576866 44.652261),"3,445",Halifax,Halifax Regional Municipality,B3J1S9,2018 - 2019,-63.576866,44.652261
Breton SmarTek Inc,ICT (includes Digital Media),POINT (-60.224927 46.083532),"3,737",Sydney,Cape Breton,B1P6H1,2018 - 2019,-60.224927,46.083532
Eosense Inc,Energy,POINT (-63.613528 44.694128),"6,780",Dartmouth,Halifax Regional Municipality,B3B1E8,2018 - 2019,-63.613528,44.694128
Fossil Power Systems Inc.,Advanced Manufacturing,POINT (-63.68541 44.870831),"6,700",Beaver Bank,Halifax Regional Municipality,B4G1E2,2018 - 2019,-63.68541,44.870831
LearnCorp International,ICT (includes Digital Media),POINT (-60.19332 46.14367),"13,500",Sydney,Cape Breton,B1P6L2,2018 - 2019,-60.19332,46.14367
Sailing CBI Inc,Business Services,POINT (-60.8321268 46.073988),"4,618",Baddeck,Victoria,B0E1B0,2018 - 2019,-60.8321268,46.073988
Bad Fem Productions Inc.,Film Production,POINT (-63.29626 45.363579),"3,417",Truro,Colchester,B2N1C1,2018 - 2019,-63.29626,45.363579
Colibri Software,ICT (includes Digital Media),POINT (-64.36820119 45.0890494),"1,483",Wolfville,Kings,B4P2R6,2018 - 2019,-64.36820119,45.0890494
Halifax Glassworks Limited,Advanced Manufacturing,POINT (-63.572203 44.648963),"1,800",Halifax,Halifax Regional Municipality,B3J1M4,2018 - 2019,-63.572203,44.648963
Modest Tree Media Inc,ICT (includes Digital Media),POINT (-63.613967 44.665253),"7,250",Halifax,Halifax Regional Municipality,B3K2R6,2018 - 2019,-63.613967,44.665253
SEG Consulting Inc.,Business Services,POINT (-63.57894264 44.65095794),"2,312",Halifax,Halifax Regional Municipality,B3J3J8,2018 - 2019,-63.57894264,44.65095794
Shut Up & Colour Pictures Inc,Film Production,POINT (-63.592883 44.658346),"13,796",Halifax,Halifax Regional Municipality,B3K1P6,2018 - 2019,-63.592883,44.658346
Swept Technologies Inc.,ICT (includes Digital Media),POINT (-63.5746568 44.6450065),"5,800",Halifax,Halifax Regional Municipality,B3J0A7,2018 - 2019,-63.5746568,44.6450065
WoodChaCallIt Toy and Wood Crafters,Advanced Manufacturing,POINT (-63.729792 44.56335),"7,177",Hatchet Lake,Halifax Regional Municipality,B3T1P7,2018 - 2019,-63.729792,44.56335
ProNova Marine Products Limited,Oceans Technology,POINT (-65.718791 43.506113),"2,042",Lower Woods Harbour,Shelburne,B0W2E0,2018 - 2019,-65.718791,43.506113
VitaMed Inc,Life Sciences,POINT (-63.670275 44.709158),"15,000",Bedford,Halifax Regional Municipality,B4A1G5,2018 - 2019,-63.670275,44.709158
Core Elements Advisors Inc.,Business Services,POINT (-63.588845 44.639667),"1,575",Halifax,Halifax Regional Municipality,B3H3K1,2018 - 2019,-63.588845,44.639667
Andrew MacCormack,Film Production,POINT (-63.563906 44.679054),513,Dartmouth,Halifax Regional Municipality,B3A3R7,2018 - 2019,-63.563906,44.679054
Aqua Production Systems Incorporated,Advanced Manufacturing,POINT (-62.58817 45.576852),"14,980",New Glasgow,Pictou,B2H5C4,2018 - 2019,-62.58817,45.576852
Nexus Coastal Resource Management,Engineering & Professional,POINT (-63.795244 44.672015),"6,700",Hubley,Halifax Regional Municipality,B3Z1B8,2018 - 2019,-63.795244,44.672015
Over The Edge (Canada) Inc,Business Services,POINT (-63.617374 44.624443),"5,000",Halifax,Halifax Regional Municipality,B3P1K9,2018 - 2019,-63.617374,44.624443
Pro-Oceanus Systems Inc,Oceans Technology,POINT (-64.52322 44.379736),"14,925",Bridgewater,Lunenburg,B4V1N1,2018 - 2019,-64.52322,44.379736
Sober Island Oysters Limited,Fish & Seafood Processing,POINT (-62.441121 44.883146),"7,800",Sheet Harbour,Halifax Regional Municipality,B0J3B0,2018 - 2019,-62.441121,44.883146
My Home Apparel,Advanced Manufacturing,POINT (-63.27507 45.363155),"7,400",Truro,Colchester,B2N2K5,2018 - 2019,-63.27507,45.363155
Social Navigator Inc,ICT (includes Digital Media),POINT (-63.6851302 44.658753),"25,000",Halifax,Halifax Regional Municipality,B3S0B9,2018 - 2019,-63.6851302,44.658753
Eye Catch Signs Limited,Advanced Manufacturing,POINT (-63.590323 44.654665),"15,000",Halifax,Halifax Regional Municipality,B3K3V4,2018 - 2019,-63.590323,44.654665
Flo Digital Inc,ICT (includes Digital Media),POINT (-63.645986 44.648416),"3,232",Halifax,Halifax Regional Municipality,B3J2X2,2018 - 2019,-63.645986,44.648416
Sea to Sea Productions Ltd.,Film Production,POINT (-63.95209554 44.6653421),"2,700",Boutiliers Point,Halifax Regional Municipality,B3Z1R3,2018 - 2019,-63.95209554,44.6653421
Turbulent Research Inc,Oceans Technology,POINT (-63.690551 44.636774),"15,000",Beechville,Halifax Regional Municipality,B3T1A2,2018 - 2019,-63.690551,44.636774
Xeos Technologies Inc,Oceans Technology,POINT (-63.604817 44.715039),"15,000",Dartmouth,Halifax Regional Municipality,B3B1L6,2018 - 2019,-63.604817,44.715039
APPILI Therapeutics,Life Sciences,POINT (-63.573789 44.624478),"15,000",Halifax,Halifax Regional Municipality,B3H1A8,2018 - 2019,-63.573789,44.624478
Black Star Wealth Partners,Business Services,POINT (-63.599571 44.649413),"6,125",Halifax,Halifax Regional Municipality,B3L1K9,2018 - 2019,-63.599571,44.649413
Cabbage Patch Kimchi,Agri-food,POINT (-63.573625 44.634901),800,Halifax,Halifax Regional Municipality,B3H2S9,2018 - 2019,-63.573625,44.634901
Gorgeous Mistake Productions,Film Production,POINT (-63.574093 44.673505),"6,962",Dartmouth,Halifax Regional Municipality,B3A2Y3,2018 - 2019,-63.574093,44.673505
Nautics Group Inc.,Advanced Manufacturing,POINT (-63.66463 44.728037),"12,925",Bedford,Halifax Regional Municipality,B4A1E2,2018 - 2019,-63.66463,44.728037
Nu-Air Ventilation Systems Inc,Advanced Manufacturing,POINT (-64.318054 44.819594),"12,415",Windsor,Hants,B0N2T0,2018 - 2019,-64.318054,44.819594
Ocean Sonics Ltd,Oceans Technology,POINT (-63.662186 45.369405),"15,000",Great Village,Colchester,B0M1L0,2018 - 2019,-63.662186,45.369405
Retail Deep,ICT (includes Digital Media),POINT (-63.572554 44.644489),900,Halifax,Halifax Regional Municipality,B3J3K5,2018 - 2019,-63.572554,44.644489
Rebel Road Films,Film Production,POINT (-62.100393 45.562152),500,Antigonish,Antigonish,B2G2L3,2018 - 2019,-62.100393,45.562152
Climate Technical Gear,Advanced Manufacturing,POINT (-63.592089 44.695586),"12,275",Dartmouth,Halifax Regional Municipality,B3B1S2,2018 - 2019,-63.592089,44.695586
Freshify Inc,Advanced Manufacturing,POINT (-64.37466729 45.08579837),"7,494",Wolfville,Kings,B4P1P8,2018 - 2019,-64.37466729,45.08579837
Midgard Insect Farm Inc,Agri-food,POINT (-63.602803 44.654196),"13,555",Halifax,Halifax Regional Municipality,B3L1V1,2018 - 2019,-63.602803,44.654196
Ocean Pride Fisheries Limited (Atlantic Treasure Limited),Fish & Seafood Processing,POINT (-65.97528 43.717172),"5,927",Lower Wedgeport,Yarmouth,B0W2B0,2018 - 2019,-65.97528,43.717172
Vesuvius Media Ltd.,ICT (includes Digital Media),POINT (-63.650445 44.676671),"12,808",Halifax,Halifax Regional Municipality,B3M1W8,2018 - 2019,-63.650445,44.676671
EOceans Research and Consulting Inc.,Oceans Technology,POINT (-63.555147 44.674503),"2,800",Dartmouth,Halifax Regional Municipality,B2Y1T7,2018 - 2019,-63.555147,44.674503
I Matheson & Company (IMC) Ltd,Advanced Manufacturing,POINT (-62.612365 45.601704),"2,100",New Glasgow,Pictou,B2H5E5,2018 - 2019,-62.612365,45.601704
Enginuity Inc.,Business Services,POINT (-63.615546 44.619123),"10,315",Halifax,Halifax Regional Municipality,B3P1M1,2018 - 2019,-63.615546,44.619123
Fourth Wave Strategy Inc,Business Services,POINT (-63.5417345 44.69860475),"14,901",Dartmouth,Halifax Regional Municipality,B2X3G1,2018 - 2019,-63.5417345,44.69860475
Romor Ocean Solutions,Oceans Technology,POINT (-63.870954 45.034086),"13,697",Mount Uniacke,Hants,B0N1Z0,2018 - 2019,-63.870954,45.034086
Schoolhouse Gluten Free Gourmet Ltd.,Agri-food,POINT (-64.307402 44.308292),"2,185",Mahone Bay,Lunenburg,B0J2E0,2018 - 2019,-64.307402,44.308292
Spritely Technologies Inc,ICT (includes Digital Media),POINT (-63.665971 44.662523),"7,900",Halifax,Halifax Regional Municipality,B3S1E5,2018 - 2019,-63.665971,44.662523
Green Power Labs Inc,Energy,POINT (-63.542698 44.660305),"15,000",Dartmouth,Halifax Regional Municipality,B2Y4M9,2018 - 2019,-63.542698,44.660305
Andrea Janzen Professional Coaching,Business Services,POINT (-63.599408 44.644887),801,Halifax,Halifax Regional Municipality,B3L2S7,2018 - 2019,-63.599408,44.644887
Atlantic Ambassatours Ltd.,Business Services,POINT (-63.619767 44.666131),"3,737",Halifax,Halifax Regional Municipality,B3K2V6,2018 - 2019,-63.619767,44.666131
Left Meets Right Creative Co,ICT (includes Digital Media),POINT (-63.614427 44.665139),500,Halifax,Halifax Regional Municipality,B3K5V4,2018 - 2019,-63.614427,44.665139
RPS Composites Inc,Advanced Manufacturing,POINT (-64.307402 44.308292),"7,500",Mahone Bay,Lunenburg,B0J2E0,2018 - 2019,-64.307402,44.308292
Ruby Tree Films Inc.,Film Production,POINT (-63.573748 44.646552),"4,698",Halifax,Halifax Regional Municipality,B3J2A1,2018 - 2019,-63.573748,44.646552
Black Dog Films / The Monster Productions Inc,Film Production,POINT (-63.598415 44.652126),"21,119",Halifax,Halifax Regional Municipality,B3L1P4,2018 - 2019,-63.598415,44.652126
GN Plastics Company Ltd.,Advanced Manufacturing,POINT (-64.225079 44.560562),"14,525",Chester,Lunenburg,B0J1J0,2018 - 2019,-64.225079,44.560562
Nautel Limited,Advanced Manufacturing,POINT (-63.852091 44.686573),"15,000",Hacketts Cove,Halifax Regional Municipality,B3Z3J4,2018 - 2019,-63.852091,44.686573
Efficiency Properties,ICT (includes Digital Media),POINT (-63.605039 44.668481),"6,600",Halifax,Halifax Regional Municipality,B3K3P2,2018 - 2019,-63.605039,44.668481
Aerovision Canada,Aerospace & Defence,POINT (-63.690551 44.636774),"3,935",Beechville,Halifax Regional Municipality,B3T1A2,2018 - 2019,-63.690551,44.636774
Glas Ocean Electric Inc,Energy,POINT (-63.577884 44.615051),"14,250",Halifax,Halifax Regional Municipality,B3P2H3,2018 - 2019,-63.577884,44.615051
Red Dragon Marketing,Business Services,POINT (-64.318054 44.819594),"8,180",Windsor,Hants,B0N2T0,2018 - 2019,-64.318054,44.819594
Canada Rope & Twine Limited,Advanced Manufacturing,POINT (-63.710231 44.722456),"13,675",Bedford,Halifax Regional Municipality,B4B1H1,2018 - 2019,-63.710231,44.722456
Hoppy's Safety Hook Enterprise,Advanced Manufacturing,POINT (-65.974666 43.730094),"1,640",Saulnierville,Digby,B0W2Z0,2018 - 2019,-65.974666,43.730094
Lorax Systems Inc,Energy,POINT (-63.588536 44.700833),"4,178",Dartmouth,Halifax Regional Municipality,B3B1S8,2018 - 2019,-63.588536,44.700833
Manage Your Spend,ICT (includes Digital Media),POINT (-63.569364 44.643446),"3,322",Halifax,Halifax Regional Municipality,B3J3Z2,2018 - 2019,-63.569364,44.643446
Outdoor-Fit Exercise Systems,Advanced Manufacturing,POINT (-63.611768 44.703405),"7,000",Dartmouth,Halifax Regional Municipality,B3B1M3,2018 - 2019,-63.611768,44.703405
Side Door Access Inc,ICT (includes Digital Media),POINT (-63.588243 44.6524635),"1,375",Halifax,Halifax Regional Municipality,B3K1H1,2018 - 2019,-63.588243,44.6524635
Smarter Spaces Inc,Business Services,POINT (-63.590281 44.662737),"3,349",Halifax,Halifax Regional Municipality,B3K5M4,2018 - 2019,-63.590281,44.662737
Omnitech Electronics Inc,Oceans Technology,POINT (-63.611144 44.704132),"12,500",Dartmouth,Halifax Regional Municipality,B3B1J4,2018 - 2019,-63.611144,44.704132
TerraProForma (FORMERLY - Play the Field),ICT (includes Digital Media),POINT (-63.593067 44.632894),"15,000",Halifax,Halifax Regional Municipality,B3H3W5,2018 - 2019,-63.593067,44.632894
Javitech Atlantic Ltd,Business Services,POINT (-63.660842 44.693973),"3,081",Halifax,Halifax Regional Municipality,B3M2L8,2018 - 2019,-63.660842,44.693973
Allswater Marine Consultants Ltd,Oceans Technology,POINT (-63.673227 44.719376),"5,300",Bedford,Halifax Regional Municipality,B4A1B9,2018 - 2019,-63.673227,44.719376
Atlantic Prepaid,ICT (includes Digital Media),POINT (-63.66590854 44.7542213),"24,207",Lower Sackville,Halifax Regional Municipality,B4C2R3,2018 - 2019,-63.66590854,44.7542213
Blue Ocean Contact Centers,Business Services,POINT (-63.623858 44.653361),"15,000",Halifax,Halifax Regional Municipality,B3L4V2,2018 - 2019,-63.623858,44.653361
Cut/Off/Tail Pictures,Film Production,POINT (-63.653534 44.471319),"1,500",Halifax,Halifax Regional Municipality,B3V1M4,2018 - 2019,-63.653534,44.471319
First Catch Fisheries Co. Ltd,Fish & Seafood Processing,POINT (-63.5174 44.886106),"14,250",Enfield,Hants,B2T1E4,2018 - 2019,-63.5174,44.886106
Ocean Perfect North America Inc.,Fish & Seafood Processing,POINT (-63.52380855 44.8796973),"4,325",Enfield,Halifax Regional Municipality,B2T1K3,2018 - 2019,-63.52380855,44.8796973
SOHMA Naturals,Life Sciences,POINT (-65.84642 44.536344),"4,500",Digby,Digby,B0V1A0,2018 - 2019,-65.84642,44.536344
The Discovery Centre International Inc.,Business Services,POINT (-63.568235 44.64141),"15,000",Halifax,Halifax Regional Municipality,B3J3S8,2018 - 2019,-63.568235,44.64141
The Family Knife Marketing Consultancy Inc.,Business Services,POINT (-63.613647 44.643919),"5,150",Halifax,Halifax Regional Municipality,B3L3G5,2018 - 2019,-63.613647,44.643919
Twirp Communications,Business Services,POINT (-63.75765119 44.69567657),"6,600",Hammonds Plains,Halifax Regional Municipality,B4B1M2,2018 - 2019,-63.75765119,44.69567657
Vertical Productions Inc.,Film Production,POINT (-63.90069908 44.68497759),"5,870",Head Of St Margarets Bay,Halifax Regional Municipality,B3Z2G5,2018 - 2019,-63.90069908,44.68497759
Atlantex Limited,Advanced Manufacturing,POINT (-64.326325 44.375846),"2,482",Head Of Chezzetcook,Halifax Regional Municipality,B0J1N0,2018 - 2019,-64.326325,44.375846
Bandha Nutrition Products,Agri-food,POINT (-63.571931 44.643044),"2,295",Halifax,Halifax Regional Municipality,B3J1Z2,2018 - 2019,-63.571931,44.643044
Boxing Rock Brewing Co,Advanced Manufacturing,POINT (-65.41816 43.66134),"13,720",Shelburne,Shelburne,B0T1W0,2018 - 2019,-65.41816,43.66134
Dynamic Systems Analysis Ltd.,Oceans Technology,POINT (-63.614939 44.661614),"6,725",Halifax,Halifax Regional Municipality,B3K4X8,2018 - 2019,-63.614939,44.661614
Magic Rock Productions,Film Production,POINT (-63.575676 44.645676),"5,000",Halifax,Halifax Regional Municipality,B3J1K9,2018 - 2019,-63.575676,44.645676
Mersey Consulting Ltd,Energy,POINT (-63.78345074 44.52367796),"10,025",Shad Bay,Halifax Regional Municipality,B3T2B5,2018 - 2019,-63.78345074,44.52367796
Mil-Aero Electronics Atlantic Inc,Advanced Manufacturing,POINT (-63.540249 44.657211),"2,660",Dartmouth,Halifax Regional Municipality,B2Y4V9,2018 - 2019,-63.540249,44.657211
Partner International Inc,Business Services,POINT (-63.544976 44.661923),"15,000",Dartmouth,Halifax Regional Municipality,B2Y4T6,2018 - 2019,-63.544976,44.661923
Capital Seafood International Incorporated,Fish & Seafood Processing,POINT (-63.492851 44.61556),"15,000",Eastern Passage,Halifax Regional Municipality,B3G1M5,2018 - 2019,-63.492851,44.61556
Aerotec Engines Limited,Advanced Manufacturing,POINT (-63.696482 44.821286),"12,700",Beaver Bank,Halifax Regional Municipality,B4G1A6,2018 - 2019,-63.696482,44.821286
CBCL Limited,Energy,POINT (-63.572435 44.651581),"14,820",Halifax,Halifax Regional Municipality,B3J2R7,2018 - 2019,-63.572435,44.651581
Tucan Olive Oil Company Ltd,Agri-food,POINT (-63.519127 44.672757),"2,699",Dartmouth,Halifax Regional Municipality,B2W2P8,2018 - 2019,-63.519127,44.672757
BlockCrushr Inc.,ICT (includes Digital Media),POINT (-63.608409 44.653374),"9,200",Halifax,Halifax Regional Municipality,B3L2W4,2018 - 2019,-63.608409,44.653374
C Squared Project Management Services Ltd.,Engineering & Professional,POINT (-63.681376 44.710595),"5,275",Bedford,Halifax Regional Municipality,B4A0B4,2018 - 2019,-63.681376,44.710595
Copernicus Labs Inc,ICT (includes Digital Media),POINT (-63.616146 44.674409),"13,201",Halifax,Halifax Regional Municipality,B3J3P1,2018 - 2019,-63.616146,44.674409
Innovative Fishery Products Inc,Fish & Seafood Processing,POINT (-66.072105 44.357602),"1,515",Belliveau Cove,Digby,B0W1J0,2018 - 2019,-66.072105,44.357602
ITO Seafoods Ltd,Fish & Seafood Processing,POINT (-63.56899455 44.64269727),"7,400",Halifax,Halifax Regional Municipality,B3J3R3,2018 - 2019,-63.56899455,44.64269727
Nautical Seafoods Ltd,Fish & Seafood Processing,POINT (-65.744945 44.705351),"1,950",Clementsport,Annapolis,B0S1K0,2018 - 2019,-65.744945,44.705351
Prism Tradeshow Products Inc.,Advanced Manufacturing,POINT (-63.542698 44.660305),"14,625",Dartmouth,Halifax Regional Municipality,B2Y4M9,2018 - 2019,-63.542698,44.660305
"Sufata Software Solutions, Inc",ICT (includes Digital Media),POINT (-63.740718 44.725204),"14,537",Hammonds Plains,Halifax Regional Municipality,B4B1E4,2018 - 2019,-63.740718,44.725204
Uplift Content Inc,ICT (includes Digital Media),POINT (-63.553251 44.661883),"5,750",Dartmouth,Halifax Regional Municipality,B2Y2G6,2018 - 2019,-63.553251,44.661883
Verb Interactive Inc.,Business Services,POINT (-63.573726 44.646512),"14,970",Halifax,Halifax Regional Municipality,B3J2A2,2018 - 2019,-63.573726,44.646512
Wired Flare Inc,Business Services,POINT (-63.456788 44.681162),"9,412",Dartmouth,Halifax Regional Municipality,B2V1N4,2018 - 2019,-63.456788,44.681162
Ocean Entertainment Ltd.,Film Production,POINT (-63.593521 44.650817),"15,000",Halifax,Halifax Regional Municipality,B3K4T9,2018 - 2019,-63.593521,44.650817
Pisces Research Project Management Inc,Business Services,POINT (-63.603725 44.669255),"2,065",Halifax,Halifax Regional Municipality,B3K2L9,2018 - 2019,-63.603725,44.669255
Web Builders Group Inc,ICT (includes Digital Media),POINT (-62.644931 45.587924),"10,350",New Glasgow,Pictou,B2H2P6,2018 - 2019,-62.644931,45.587924
HB Studios Multimedia Ltd,ICT (includes Digital Media),POINT (-64.620343 44.469069),"15,000",New Germany,Lunenburg,B0R1E0,2018 - 2019,-64.620343,44.469069
Dartmouth Metals and Bottle Limited,Advanced Manufacturing,POINT (-63.607766 44.702958),"596,613",Dartmouth,Halifax Regional Municipality,B3B1H9,2018 - 2019,-63.607766,44.702958
"Kenney & Ross, Limited",Advanced Manufacturing,POINT (-65.41816 43.66134),"636,884",Shelburne,Shelburne,B0T1W0,2018 - 2019,-65.41816,43.66134
Ocean Crisp Apple Company Incorporated,Agri-food,POINT (-64.547804 45.067163),"1,168,766",Kentville,Kings,B4N3V7,2018 - 2019,-64.547804,45.067163
Surrette Battery Company Limited,Advanced Manufacturing,POINT (-64.034548 45.664595),"1,200,248",Springhill,Cumberland,B0M1X0,2018 - 2019,-64.034548,45.664595
John Ross & Sons Ltd.,Advanced Manufacturing,POINT (-63.663711 44.637971),"1,070,296",Halifax,Halifax Regional Municipality,B3S1B3,2018 - 2019,-63.663711,44.637971
Canadian Maritime Engineering Limited,Advanced Manufacturing,POINT (-60.250051 46.207792),"756,473",North Sydney,Cape Breton,B2A1B5,2018 - 2019,-60.250051,46.207792
Maritime Labels & Packaging,Advanced Manufacturing,POINT (-63.707864 44.725286),"540,335",Bedford,Halifax Regional Municipality,B4B1G7,2018 - 2019,-63.707864,44.725286
Kohltech International Ltd,Advanced Manufacturing,POINT (-63.531392 45.468637),"843,388",Debert,Colchester,B0M1G0,2018 - 2019,-63.531392,45.468637
Agropur Cooperative,Agri-food,POINT (-63.28926512 45.34069389),"1,843,776",Truro,Colchester,B2N6W9,2018 - 2019,-63.28926512,45.34069389
Scotian Gold Cooperative Ltd,Agri-food,POINT (-64.5855291 45.0650474),"477,333",Coldbrook,Kings,B4R1A6,2018 - 2019,-64.5855291,45.0650474
Oxford Frozen Foods Ltd,Agri-food,POINT (-63.849946 45.810473),"702,205",Oxford,Cumberland,B0M1P0,2018 - 2019,-63.849946,45.810473
Michelin North America (Canada) Inc - Granton,Advanced Manufacturing,POINT (-62.639785 45.609213),"3,569,500",New Glasgow,Pictou,B2H5E6,2018 - 2019,-62.639785,45.609213
AF Theriault & Son Ltd.,Advanced Manufacturing,POINT (-66.119502 44.221552),"1,536,878",Meteghan River,Digby,B0W2L0,2018 - 2019,-66.119502,44.221552
Kilo Communications Inc,ICT (includes Digital Media),POINT (-63.592032 44.656647),"15,000",Halifax,Halifax Regional Municipality,B3K1N1,2018 - 2019,-63.592032,44.656647
The Lobster Trap Company Limited,Oceans Technology,POINT (-66.118319 43.842674),"25,000",Yarmouth,Yarmouth,B5A4B4,2018 - 2019,-66.118319,43.842674
Airesun Global Limited,Chemicals & Plastics,POINT (-59.991669 46.206353),"15,000",Glace Bay,Cape Breton,B1A4S6,2018 - 2019,-59.991669,46.206353
Photodynamic Incorporated,Life Sciences,POINT (-63.573789 44.624478),"25,000",Halifax,Halifax Regional Municipality,B3H1A8,2018 - 2019,-63.573789,44.624478
NeoThermal Energy Storage Inc,Energy,POINT (-64.523942 44.378324),"15,000",Bridgewater,Lunenburg,B4V1P4,2018 - 2019,-64.523942,44.378324
Scotia Garden Seafoods Inc,Fish & Seafood Processing,POINT (-66.121483 43.816747),"15,000",Yarmouth,Yarmouth,B5A4B1,2018 - 2019,-66.121483,43.816747
Axem Neurotechnology Inc.,Life Sciences,POINT (-63.572554 44.644489),"15,000",Halifax,Halifax Regional Municipality,B3J3K5,2018 - 2019,-63.572554,44.644489
Nova Aquaponics Incorporated,Advanced Manufacturing,POINT (-63.667551 44.676453),"25,000",Halifax,Halifax Regional Municipality,B3M3Y8,2018 - 2019,-63.667551,44.676453
Louisbourg Seafoods Ltd,Fish & Seafood Processing,POINT (-59.97144562 45.91905461),"15,000",Louisbourg,Cape Breton,B1C1B5,2018 - 2019,-59.97144562,45.91905461
Aurea Technologies Inc,Energy,POINT (-63.740414 44.657359),"15,000",Glen Haven,Halifax Regional Municipality,B3Z2V7,2018 - 2019,-63.740414,44.657359
D.M.R. Boat Design Limited,Oceans Technology,POINT (-63.737267 44.507267),"15,000",Whites Lake,Halifax Regional Municipality,B3T1X3,2018 - 2019,-63.737267,44.507267
Cape Breton Bivalve Inc,Fish & Seafood Processing,POINT (-59.976684 45.918232),"15,000",Louisbourg,Cape Breton,B1C2L8,2018 - 2019,-59.976684,45.918232
Velsoft Training Materials Inc,ICT (includes Digital Media),POINT (-62.64523 45.587057),"15,000",New Glasgow,Pictou,B2H2P8,2018 - 2019,-62.64523,45.587057
F L Action/Reaction Sports,Advanced Manufacturing,POINT (-65.994395 43.749188),"25,000",Arcadia,Yarmouth,B0W1B0,2018 - 2019,-65.994395,43.749188
Heritage Memorials Limited,Agri-food,POINT (-64.318054 44.819594),"25,000",Windsor,Hants,B0N2T0,2018 - 2019,-64.318054,44.819594
Chelation Partners Incorporated,Life Sciences,POINT (-63.59645 44.637136),"25,000",Halifax,Halifax Regional Municipality,B3H3Z1,2018 - 2019,-63.59645,44.637136
Dykeview Farms Limited,Agri-food,POINT (-64.680474 45.195976),"15,000",Centreville,Kings,B0P1J0,2018 - 2019,-64.680474,45.195976
Fundy Hops,Agri-food,POINT (-64.689373 45.149172),"15,000",Waterville,Kings,B0P1V0,2018 - 2019,-64.689373,45.149172
Atlantick Repellent Products Inc.,Chemicals & Plastics,POINT (-64.307402 44.308292),"25,000",Mahone Bay,Lunenburg,B0J2E0,2018 - 2019,-64.307402,44.308292
Saltbox Brewing Company,Agri-food,POINT (-64.307402 44.308292),"25,000",Mahone Bay,Lunenburg,B0J2E0,2018 - 2019,-64.307402,44.308292
Sea-Pur Seaweed Products,Agri-food,POINT (-60.18298 46.110635),"15,000",Sydney,Cape Breton,B1S3S4,2018 - 2019,-60.18298,46.110635
Alto Solar,Energy,POINT (-63.599844 44.652427),"15,000",Halifax,Halifax Regional Municipality,B3L1P9,2018 - 2019,-63.599844,44.652427
Natural Ocean Products Inc.,ICT (includes Digital Media),POINT (-63.62997 44.469104),"25,000",Halifax,Halifax Regional Municipality,B3V1L9,2018 - 2019,-63.62997,44.469104
RGI Logistics & Technology Inc.,Advanced Manufacturing,POINT (-60.09051595 46.2412227),"15,000",New Waterford,Cape Breton,B1H3R7,2018 - 2019,-60.09051595,46.2412227
L'Acadie Vineyards,Agri-food,POINT (-64.403589 45.013938),"15,000",Wolfville,Kings,B4P2R1,2018 - 2019,-64.403589,45.013938
Stevens Solutions & Design Inc,Advanced Manufacturing,POINT (-64.307402 44.308292),"15,000",Mahone Bay,Lunenburg,B0J2E0,2018 - 2019,-64.307402,44.308292
Bear River Vineyards Ltd.,Agri-food,POINT (-65.610454 44.554357),"15,000",Bear River,Digby,B0S1B0,2018 - 2019,-65.610454,44.554357
Mermaid Fare Inc,Agri-food,POINT (-63.56358 44.667535),"15,000",Dartmouth,Halifax Regional Municipality,B2Y2W1,2018 - 2019,-63.56358,44.667535
ColorSmith,Life Sciences,POINT (-63.58619 44.636159),"15,000",Halifax,Halifax Regional Municipality,B3H1T1,2018 - 2019,-63.58619,44.636159
Bear Cove Resources,Advanced Manufacturing,POINT (-64.710851 44.055473),"15,000",Brooklyn,Lunenburg,B0J1H0,2018 - 2019,-64.710851,44.055473
Defenzall Therapeutics Inc.,Life Sciences,POINT (-63.60358426 44.8481452),"15,000",Fletchers Lake,Halifax Regional Municipality,B2T1A5,2018 - 2019,-63.60358426,44.8481452
Finleaf Technologies Inc.,Agri-food,POINT (-63.657959 44.731599),"15,000",Bedford,Halifax Regional Municipality,B4A1E6,2018 - 2019,-63.657959,44.731599
Stones Pharmacy,Life Sciences,POINT (-60.751528 46.100472),"25,000",Baddeck,Victoria,B0E1B0,2018 - 2019,-60.751528,46.100472
Propel BioEnergy LTD.,Energy,POINT (-63.536483 44.693342),"15,000",Dartmouth,Halifax Regional Municipality,B2X2A5,2018 - 2019,-63.536483,44.693342
Apaqtaukewaq Fishery Co-op,Fish & Seafood Processing,POINT (-60.957559 45.620463),"15,000",St Peters,Richmond,B0E3B0,2018 - 2019,-60.957559,45.620463
PPT Labs Inc.,ICT (includes Digital Media),POINT (-63.58727 44.652558),"25,000",Halifax,Halifax Regional Municipality,B3K3T7,2018 - 2019,-63.58727,44.652558
NovaResp Technologies Inc.,ICT (includes Digital Media),POINT (-63.56954723 44.63642004),"15,000",Halifax,Halifax Regional Municipality,B3H4R4,2018 - 2019,-63.56954723,44.63642004
Elcora Advanced Materials Corp,Energy,POINT (-63.646705 44.737949),"25,000",Bedford,Halifax Regional Municipality,B4A2T3,2018 - 2019,-63.646705,44.737949
Yarmouth Bar Fisheries Limited,Fish & Seafood Processing,POINT (-66.13783 43.83244),"15,000",Yarmouth,Yarmouth,B5A4A7,2018 - 2019,-66.13783,43.83244
LED Roadway Lighting Ltd,Advanced Manufacturing,POINT (-63.663711 44.637971),"15,000",Halifax,Halifax Regional Municipality,B3S1B3,2018 - 2019,-63.663711,44.637971
Copol International Ltd.,Advanced Manufacturing,POINT (-60.24105 46.237929),"15,000",North Sydney,Cape Breton,B2A3M4,2018 - 2019,-60.24105,46.237929
Introhive Services (NS) Inc.,ICT (includes Digital Media),POINT (-63.72337595 44.64997307),"691,800",Timberlea,Halifax Regional Municipality,B3T1C4,2018 - 2019,-63.72337595,44.64997307
The Sydney Call Centre Inc.,ICT (includes Digital Media),POINT (-60.18146341 46.14405113),"2,475,000",Sydney,Halifax Regional Municipality,B1P1W8,2018 - 2019,-60.18146341,46.14405113
REDspace Inc,ICT (includes Digital Media),POINT (-63.66024 44.731123),"1,497,500",Bedford,Halifax Regional Municipality,B4A1E5,2018 - 2019,-63.66024,44.731123
Influitive Corporation,ICT (includes Digital Media),,"448,000",,Halifax Regional Municipality,,2018 - 2019,,
Savormetrics Inc.,ICT (includes Digital Media),POINT (-63.645986 44.648416),"619,650",Halifax,Halifax Regional Municipality,B3J2X2,2018 - 2019,-63.645986,44.648416
Monkedia LLC,ICT (includes Digital Media),POINT (-63.552011 44.678941),"610,350",Dartmouth,Halifax Regional Municipality,B2Y4J2,2018 - 2019,-63.552011,44.678941
Manulife Financial,Finance & Insurance,POINT (-63.623007 44.643294),0,Halifax,Halifax Regional Municipality,B3L4G6,2018 - 2019,-63.623007,44.643294
Dilytics,ICT (includes Digital Media),POINT (-63.604559 44.709923),0,Dartmouth,Halifax Regional Municipality,B3B1N1,2018 - 2019,-63.604559,44.709923
BeyondTrust Software Inc.,ICT (includes Digital Media),POINT (-63.57347352 44.64895408),"3,120,563",Halifax,Halifax Regional Municipality,B3J3N4,2018 - 2019,-63.57347352,44.64895408
10380008 Canada Inc dba MobSquad,ICT (includes Digital Media),POINT (-63.581038 44.652525),"2,084,800",Halifax,Halifax Regional Municipality,B3K5T8,2018 - 2019,-63.581038,44.652525
Gael Force Group,Oceans Technology,POINT (-60.446479 45.850577),0,East Bay,Halifax Regional Municipality,B0A1H0,2018 - 2019,-60.446479,45.850577
Sensor Technology Ltd,Oceans Technology,POINT (-63.556475 44.661861),0,Dartmouth,Halifax Regional Municipality,B2Y4T5,2018 - 2019,-63.556475,44.661861
Columbus AI,ICT (includes Digital Media),,0,,Halifax Regional Municipality,,2018 - 2019,,
Accenture Canada,ICT (includes Digital Media),POINT (-63.572554 44.644489),0,Halifax,Halifax Regional Municipality,B3J3k5,2018 - 2019,-63.572554,44.644489
Propipe UK,Oceans Technology,POINT (-63.57347352 44.64895408),0,Halifax,Halifax Regional Municipality,B3J3N4,2018 - 2019,-63.57347352,44.64895408
Invisible Agents,ICT (includes Digital Media),POINT (-63.57606155 44.65201157),0,Halifax,Halifax Regional Municipality,B3J3N2,2018 - 2019,-63.57606155,44.65201157
Nova Innovation,Energy,POINT (-63.623858 44.653361),0,Halifax,Halifax Regional Municipality,B3L2C1,2018 - 2019,-63.623858,44.653361
Sea Harvest Seafood (2019) Ltd,Fish & Seafood Processing,POINT (-63.789083 44.663635),0,Hubley,Halifax Regional Municipality,B3Z0A2,2018 - 2019,-63.789083,44.663635
Adadem Import and Export,Business Services,POINT (-63.620793 44.634023),0,Halifax,Halifax Regional Municipality,B3N1B9,2018 - 2019,-63.620793,44.634023
Amos And Andy Fisheries Limited,Fish & Seafood Processing,POINT (-63.5834154 44.4838879),0,Sambro Head,Halifax Regional Municipality,B3V1L2,2018 - 2019,-63.5834154,44.4838879
Caldera Distilling Inc.,Agri-food,POINT (-63.041939 45.747988),0,River John,Pictou,B0K1N0,2018 - 2019,-63.041939,45.747988
Clever Fruit Products,Not Coded,POINT (-61.909827 45.546171),0,Antigonish,Halifax Regional Municipality,B2G2P9,2018 - 2019,-61.909827,45.546171
Fair Grant Writing,Not Coded,POINT (-79.440467 43.885336),0,Richmond Hill,Not Applicable / Unknown,L4C3C7,2018 - 2019,-79.440467,43.885336
Famolex Integrated Consult Limited,Business Services,POINT (-63.653935 44.66328),0,Halifax,Halifax Regional Municipality,B3M3Y7,2018 - 2019,-63.653935,44.66328
Globiz Innovation Inc.,Business Services,POINT (-63.647579 44.654692),0,Halifax,Halifax Regional Municipality,B3M1G9,2018 - 2019,-63.647579,44.654692
McInnes Cooper,Not Coded,POINT (-63.645986 44.648416),0,Halifax,Halifax Regional Municipality,B3J2V1,2018 - 2019,-63.645986,44.648416
Sea Star Seafoods Limited,Fish & Seafood Processing,POINT (-65.650454 43.462969),0,Clarks Harbour,Shelburne,B0W1P0,2018 - 2019,-65.650454,43.462969
GeoSpectrum Technologies Incorporated,Oceans Technology,POINT (-63.611144 44.704132),0,Dartmouth,Halifax Regional Municipality,B3B1J4,2018 - 2019,-63.611144,44.704132
Institute for Big Data Analytics,Not Coded,POINT (-63.59641358 44.63705044),0,Halifax,Halifax Regional Municipality,B3H4R2,2018 - 2019,-63.59641358,44.63705044
Jasco Applied Sciences (Canada) Ltd,Oceans Technology,POINT (-63.584818 44.709741),0,Dartmouth,Halifax Regional Municipality,B3B1Z1,2018 - 2019,-63.584818,44.709741
Kraken Robotics Inc.,Aerospace & Defence,POINT (-63.610623 44.703069),0,Dartmouth,Halifax Regional Municipality,B3B1T3,2018 - 2019,-63.610623,44.703069
Metamaterial Technologies Inc,Advanced Manufacturing,POINT (-63.542698 44.660305),0,Dartmouth,Halifax Regional Municipality,B2Y4M9,2018 - 2019,-63.542698,44.660305
Acadian Maple Products Ltd,Agri-food,POINT (-63.887556 44.684635),0,Upper Tantallon,Halifax Regional Municipality,B3Z2J2,2018 - 2019,-63.887556,44.684635
Acadian Seaplants Limited / Les Algues Acadiennes Limitee,Life Sciences,POINT (-63.596395 44.696321),0,Dartmouth,Halifax Regional Municipality,B3B1X8,2018 - 2019,-63.596395,44.696321
Cedar Bay Grilling Company,Fish & Seafood Processing,POINT (-64.05186 44.643217),0,Hubbards,Lunenburg,B0J1T0,2018 - 2019,-64.05186,44.643217
Galloping Cows Fine Foods,Agri-food,POINT (-61.53185 46.01684),0,Port Hood,Inverness,B0E2W0,2018 - 2019,-61.53185,46.01684
Hailmar Investments Limited,Fish & Seafood Processing,POINT (-65.12347 43.71839),0,Lockeport,Shelburne,B0T1L0,2018 - 2019,-65.12347,43.71839
Hutchinson Maple (Hutchinson Acres Inc) (Pure Infused Maple Syrup),Agri-food,POINT (-64.800737 45.066995),0,Aylesford,Kings,B0P1C0,2018 - 2019,-64.800737,45.066995
The Tea Brewery,Agri-food,POINT (-64.307402 44.308292),0,Mahone Bay,Lunenburg,B0J2E0,2018 - 2019,-64.307402,44.308292
Van Dyk's Health Juice Products Ltd,Advanced Manufacturing,POINT (-65.019781 44.378101),0,Caledonia,Queens,B0T1B0,2018 - 2019,-65.019781,44.378101
Luckett Vineyards (Luckett Farms Limited),Agri-food,POINT (-64.348807 45.068884),0,Wolfville,Kings,B4P2R3,2018 - 2019,-64.348807,45.068884
Blomidon Estate Winery,Agri-food,POINT (-64.165254 45.026806),0,Canning,Kings,B0P1H0,2018 - 2019,-64.165254,45.026806
Devonian Coast Wineries Ltd  (DCW),Agri-food,POINT (-63.453043 45.794472),0,Malagash,Cumberland,B0K1E0,2018 - 2019,-63.453043,45.794472
Domaine de Grand Pre,Agri-food,POINT (-64.285653 45.095031),0,Grand Pre,Kings,B0P1M0,2018 - 2019,-64.285653,45.095031
Mother Hubbard's Kitchens,Advanced Manufacturing,POINT (-63.581229 44.699529),0,Dartmouth,Halifax Regional Municipality,B3B1T5,2018 - 2019,-63.581229,44.699529
Bluenose Frozen Seafood Incorporated,Fish & Seafood Processing,POINT (-63.598276 44.482335),0,Prospect Bay,Halifax Regional Municipality,B3V1L5,2018 - 2019,-63.598276,44.482335
Captain Little Seafood Ltd.,Fish & Seafood Processing,POINT (-65.313433 43.775345),0,Port Mouton,Queens,B0T1T0,2018 - 2019,-65.313433,43.775345
Marimetrics Technologies,Oceans Technology,POINT (-63.556376 44.663211),0,Dartmouth,Halifax Regional Municipality,B2Y4A5,2018 - 2019,-63.556376,44.663211
Ocean Data Science,Transportation & Logistics,POINT (-63.586966 44.637694),0,Halifax,Halifax Regional Municipality,B3H1W5,2018 - 2019,-63.586966,44.637694
Prosaris Solutions Ltd.,ICT (includes Digital Media),POINT (-63.756573 44.731435),0,Hammonds Plains,Halifax Regional Municipality,B4B1P4,2018 - 2019,-63.756573,44.731435
ReelData,Oceans Technology,POINT (-63.556475 44.661861),0,Dartmouth,Halifax Regional Municipality,B2Y4T5,2018 - 2019,-63.556475,44.661861
Wittaya Aqua,Oceans Technology,POINT (-63.556475 44.661861),0,Dartmouth,Halifax Regional Municipality,B2Y4T5,2018 - 2019,-63.556475,44.661861
Geoforce Group Limited,Oceans Technology,POINT (-63.611144 44.704132),0,Dartmouth,Halifax Regional Municipality,B3B1J4,2018 - 2019,-63.611144,44.704132
MacArtney Canada Ltd,Oceans Technology,POINT (-63.56358 44.667535),0,Dartmouth,Halifax Regional Municipality,B2Y2W1,2018 - 2019,-63.56358,44.667535
Clearwater Seafoods Ltd Partnership,Fish & Seafood Processing,POINT (-63.665571 44.707624),0,Bedford,Halifax Regional Municipality,B4A3Z7,2018 - 2019,-63.665571,44.707624
Gidney Fisheries Limited,Fish & Seafood Processing,POINT (-65.84642 44.536344),0,Digby,Digby,B0V1A0,2018 - 2019,-65.84642,44.536344
Natural Hues Inc,Agri-food,POINT (-63.615373 44.645626),0,Halifax,Colchester,B3L2H5,2018 - 2019,-63.615373,44.645626
Ashored Innovations,Oceans Technology,POINT (-63.56358 44.667535),0,Dartmouth,Colchester,B2Y2W1,2018 - 2019,-63.56358,44.667535
Annapolis Brewing Company,Not Coded,POINT (-65.51801 44.74364),0,Annapolis Royal,Annapolis,B0S1A0,2018 - 2019,-65.51801,44.74364
Authentic Seacoast Company Ltd,Agri-food,POINT (-61.132467 45.320843),0,Guysborough,Guysborough,B0H1N0,2018 - 2019,-61.132467,45.320843
Island_ Folk_ Cider_ House,Agri-food,POINT (-59.866593 46.145213),0,Port Morien,Cape Breton,B1B1E7,2018 - 2019,-59.866593,46.145213
The Propeller Brewing Company,Agri-food,POINT (-63.602778 44.696904),0,Dartmouth,Halifax Regional Municipality,B3B1B6,2018 - 2019,-63.602778,44.696904
IBM Canada Ltd,ICT (includes Digital Media),POINT (-63.740337 44.723448),0,Bedford,Halifax Regional Municipality,B4B1G4,2018 - 2019,-63.740337,44.723448
Easypass Immigration & Education Consulting Inc,Business Services,POINT (-63.57813098 44.64335495),0,Halifax,Halifax Regional Municipality,B3J3K3,2018 - 2019,-63.57813098,44.64335495
Fundy Drinks LTD,Agri-food,POINT (-63.578146 44.649349),0,Halifax,Kings,B3J2G7,2018 - 2019,-63.578146,44.649349
Sainte-Famille Wines Ltd,Agri-food,POINT (-64.160143 44.997485),0,West Hants,Hants,B0P1L0,2018 - 2019,-64.160143,44.997485
Atlantic Resources Partnership Inc,Not Coded,POINT (-63.687758 44.705663),0,Bedford,Halifax Regional Municipality,B4A4H4,2018 - 2019,-63.687758,44.705663
Fisher King Seafoods Ltd,Fish & Seafood Processing,POINT (-63.65843038 44.7606098),0,Lower Sackville,Halifax Regional Municipality,B4C4E6,2018 - 2019,-63.65843038,44.7606098
Right Source Group Limited,Fish & Seafood Processing,POINT (-63.601486 44.713636),0,Dartmouth,Halifax Regional Municipality,B3B1N4,2018 - 2019,-63.601486,44.713636
Rio Import & Export Limited,Fish & Seafood Processing,POINT (-63.60125 44.716433),0,Dartmouth,Halifax Regional Municipality,B3B1W7,2018 - 2019,-63.60125,44.716433
Top Claw Lobster & Seafood Company,Fish & Seafood Processing,POINT (-65.650454 43.462969),0,Clarks Harbour,Shelburne,B0W1P0,2018 - 2019,-65.650454,43.462969
Hawboldt Industries (1989) Ltd,Oceans Technology,POINT (-64.225079 44.560562),0,Chester,Lunenburg,B0J1J0,2018 - 2019,-64.225079,44.560562
Ocean Technology Council of Nova Scotia (OTCNS),Not Coded,POINT (-63.57606155 44.65201157),0,Halifax,Halifax Regional Municipality,B3J3N2,2018 - 2019,-63.57606155,44.65201157
Taste of Nova Scotia Quality Food,Business Services,POINT (-63.569266 44.665864),0,Dartmouth,Halifax Regional Municipality,B2Y4P5,2018 - 2019,-63.569266,44.665864
Penny Doherty Literacy Consultants Incorporated,Business Services,POINT (-63.592084 44.643695),0,Halifax,Halifax Regional Municipality,B3H2J5,2018 - 2019,-63.592084,44.643695
Haskapa,Agri-food,POINT (-63.611768 44.703405),0,Dartmouth,Halifax Regional Municipality,B3B1M3,2018 - 2019,-63.611768,44.703405
Atlantica Mechanical Contractors Inc,Advanced Manufacturing,POINT (-63.606634 44.701133),0,Dartmouth,Halifax Regional Municipality,B3B1H5,2018 - 2019,-63.606634,44.701133
Biscay Seafoods Canada Ltd,Fish & Seafood Processing,POINT (-63.623858 44.653361),0,Halifax,Halifax Regional Municipality,B3L2C1,2018 - 2019,-63.623858,44.653361
Pearlmark Foods - NS Division,Not Coded,POINT (-64.165254 45.026806),0,Canning,Kings,B0P1H0,2018 - 2019,-64.165254,45.026806
Zeus Seafood Inc,Fish & Seafood Processing,POINT (-62.845748 44.7843),0,Lake Charlotte,Halifax Regional Municipality,B0J1Y0,2018 - 2019,-62.845748,44.7843
TriNav Fisheries Consultants Inc,Business Services,POINT (-63.592554 44.706327),0,Dartmouth,Halifax Regional Municipality,B3B1N3,2018 - 2019,-63.592554,44.706327
Realtime Aquaculture,Oceans Technology,POINT (-63.754376 44.700635),0,Hammonds Plains,Halifax Regional Municipality,B4B1L9,2018 - 2019,-63.754376,44.700635
Clearwater Fine Foods (Europe) Ltd,Fish & Seafood Processing,,0,,Not Applicable / Unknown,N/A,2018 - 2019,,
Bezanson & Chase Cranberry Co Ltd,Not Coded,POINT (-64.800737 45.066995),0,Aylesford,Kings,B0P1C0,2018 - 2019,-64.800737,45.066995
Kings Produce Processing Limited,Agri-food,POINT (-64.165254 45.026806),0,Canning,Kings,B0P1H0,2018 - 2019,-64.165254,45.026806
TAPROOT FARMS,Agri-food,POINT (-64.362715 45.159695),0,Port Williams,Kings,B0P1T0,2018 - 2019,-64.362715,45.159695
The Nova Agri Group,Advanced Manufacturing,POINT (-64.680474 45.195976),0,Centreville,Queens,B0P1J0,2018 - 2019,-64.680474,45.195976
Van Meekeren Farms Ltd,Agri-food,POINT (-64.547804 45.067163),0,Kentville,Kings,B4N3V7,2018 - 2019,-64.547804,45.067163
Addvocacy ADHD & Life Skills Coaching Ltd,ICT (includes Digital Media),POINT (-63.468074 44.606948),0,Eastern Passage,Halifax Regional Municipality,B3G1J1,2018 - 2019,-63.468074,44.606948
Clockk.Com Inc,ICT (includes Digital Media),POINT (-63.572554 44.644489),0,Halifax,Halifax Regional Municipality,B3J3K5,2018 - 2019,-63.572554,44.644489
Ethical Swag Inc,Business Services,POINT (-63.483946 44.690176),0,Dartmouth,Cape Breton,B2W6G2,2018 - 2019,-63.483946,44.690176
OnBook - Port Tack Media (10527602 Canada Inc),Not Coded,POINT (-63.73890326 44.65413118),0,Timberlea,Halifax Regional Municipality,B3T1E8,2018 - 2019,-63.73890326,44.65413118
Fishermen's Premium Atlantic Lobster Inc,Fish & Seafood Processing,POINT (-65.613993 43.490149),0,North East Point,Shelburne,B0W2P0,2018 - 2019,-65.613993,43.490149
Golden Alliance Canada Inc,Fish & Seafood Processing,POINT (-63.550996 44.679086),0,Dartmouth,Halifax Regional Municipality,B2Y3G8,2018 - 2019,-63.550996,44.679086
IMO Foods Limited,Fish & Seafood Processing,POINT (-66.120556 43.829792),0,Yarmouth,Yarmouth,B5A4B2,2018 - 2019,-66.120556,43.829792
West Fish Canada Limited,Fish & Seafood Processing,POINT (-63.561974 44.670912),0,Dartmouth,Halifax Regional Municipality,B2Y2X5,2018 - 2019,-63.561974,44.670912
Marwood Limited,Advanced Manufacturing,POINT (-63.097746 45.263092),0,Brookfield,Colchester,B0N1C0,2018 - 2019,-63.097746,45.263092
